{"type":"FeatureCollection","features":[{"type":"Feature","geometry":{"type":"Point","coordinates":[-3.187307,55.944494]},"properties":{"marker-size":"medium","location":"only.fairly.rift","rgb-string":"#ffc000","marker-color":"#ffc000","marker-symbol":"danger"}},{"type":"Feature","geometry":{"type":"Point","coordinates":[-3.186296,55.945761]},"properties":{"marker-size":"medium","location":"posts.kicked.universally","rgb-string":"#ff4000","marker-color":"#ff4000","marker-symbol":"danger"}},{"type":"Feature","geometry":{"type":"Point","coordinates":[-3.185236,55.944575]},"properties":{"marker-size":"medium","location":"acid.chair.butter","rgb-string":"#ff8000","marker-color":"#ff8000","marker-symbol":"danger"}},{"type":"Feature","geometry":{"type":"Point","coordinates":[-3.186007,55.943901]},"properties":{"marker-size":"medium","location":"teams.mild.played","rgb-string":"#ffc000","marker-color":"#ffc000","marker-symbol":"danger"}},{"type":"Feature","geometry":{"type":"Point","coordinates":[-3.188319,55.945518]},"properties":{"marker-size":"medium","location":"skills.less.herb","rgb-string":"#000000","marker-color":"#000000","marker-symbol":"cross"}},{"type":"Feature","geometry":{"type":"Point","coordinates":[-3.187018,55.943982]},"properties":{"marker-size":"medium","location":"renew.ears.tend","rgb-string":"#80ff00","marker-color":"#80ff00","marker-symbol":"lighthouse"}},{"type":"Feature","geometry":{"type":"Point","coordinates":[-3.184947,55.943443]},"properties":{"marker-size":"medium","location":"sentences.sings.modern","rgb-string":"#aaaaaa","marker-color":"#aaaaaa","marker-symbol":""}},{"type":"Feature","geometry":{"type":"Point","coordinates":[-3.191065,55.94444]},"properties":{"marker-size":"medium","location":"paying.crowd.weep","rgb-string":"#40ff00","marker-color":"#40ff00","marker-symbol":"lighthouse"}},{"type":"Feature","geometry":{"type":"Point","coordinates":[-3.186729,55.945168]},"properties":{"marker-size":"medium","location":"dragon.bottle.crisp","rgb-string":"#ffc000","marker-color":"#ffc000","marker-symbol":"danger"}},{"type":"Feature","geometry":{"type":"Point","coordinates":[-3.185525,55.943982]},"properties":{"marker-size":"medium","location":"manliness.poem.cliff","rgb-string":"#ffc000","marker-color":"#ffc000","marker-symbol":"danger"}},{"type":"Feature","geometry":{"type":"Point","coordinates":[-3.189764,55.942661]},"properties":{"marker-size":"medium","location":"hooked.shine.third","rgb-string":"#aaaaaa","marker-color":"#aaaaaa","marker-symbol":""}},{"type":"Feature","geometry":{"type":"Point","coordinates":[-3.189138,55.944197]},"properties":{"marker-size":"medium","location":"spoon.invest.every","rgb-string":"#40ff00","marker-color":"#40ff00","marker-symbol":"lighthouse"}},{"type":"Feature","geometry":{"type":"Point","coordinates":[-3.191161,55.945976]},"properties":{"marker-size":"medium","location":"simple.rust.audio","rgb-string":"#000000","marker-color":"#000000","marker-symbol":"cross"}},{"type":"Feature","geometry":{"type":"Point","coordinates":[-3.191161,55.943362]},"properties":{"marker-size":"medium","location":"meal.feed.large","rgb-string":"#40ff00","marker-color":"#40ff00","marker-symbol":"lighthouse"}},{"type":"Feature","geometry":{"type":"Point","coordinates":[-3.185621,55.945761]},"properties":{"marker-size":"medium","location":"shed.desire.muddy","rgb-string":"#ff4000","marker-color":"#ff4000","marker-symbol":"danger"}},{"type":"Feature","geometry":{"type":"Point","coordinates":[-3.188608,55.943119]},"properties":{"marker-size":"medium","location":"groups.ideas.script","rgb-string":"#aaaaaa","marker-color":"#aaaaaa","marker-symbol":""}},{"type":"Feature","geometry":{"type":"Point","coordinates":[-3.188271,55.944063]},"properties":{"marker-size":"medium","location":"rush.crown.link","rgb-string":"#00ff00","marker-color":"#00ff00","marker-symbol":"lighthouse"}},{"type":"Feature","geometry":{"type":"Point","coordinates":[-3.190727,55.943092]},"properties":{"marker-size":"medium","location":"relate.chill.vest","rgb-string":"#00ff00","marker-color":"#00ff00","marker-symbol":"lighthouse"}},{"type":"Feature","geometry":{"type":"Point","coordinates":[-3.187355,55.943604]},"properties":{"marker-size":"medium","location":"shut.stands.media","rgb-string":"#80ff00","marker-color":"#80ff00","marker-symbol":"lighthouse"}},{"type":"Feature","geometry":{"type":"Point","coordinates":[-3.184513,55.945302]},"properties":{"marker-size":"medium","location":"settle.title.united","rgb-string":"#ff4000","marker-color":"#ff4000","marker-symbol":"danger"}},{"type":"Feature","geometry":{"type":"Point","coordinates":[-3.187789,55.944386]},"properties":{"marker-size":"medium","location":"thank.salsa.brain","rgb-string":"#40ff00","marker-color":"#40ff00","marker-symbol":"lighthouse"}},{"type":"Feature","geometry":{"type":"Point","coordinates":[-3.18697,55.942688]},"properties":{"marker-size":"medium","location":"strut.river.surely","rgb-string":"#ff4000","marker-color":"#ff4000","marker-symbol":"danger"}},{"type":"Feature","geometry":{"type":"Point","coordinates":[-3.189812,55.94409]},"properties":{"marker-size":"medium","location":"cliff.asleep.wedge","rgb-string":"#40ff00","marker-color":"#40ff00","marker-symbol":"lighthouse"}},{"type":"Feature","geometry":{"type":"Point","coordinates":[-3.188897,55.945707]},"properties":{"marker-size":"medium","location":"stops.else.chats","rgb-string":"#ff0000","marker-color":"#ff0000","marker-symbol":"danger"}},{"type":"Feature","geometry":{"type":"Point","coordinates":[-3.186103,55.944251]},"properties":{"marker-size":"medium","location":"organs.shape.fantastic","rgb-string":"#ff4000","marker-color":"#ff4000","marker-symbol":"danger"}},{"type":"Feature","geometry":{"type":"Point","coordinates":[-3.191161,55.942742]},"properties":{"marker-size":"medium","location":"along.spill.limp","rgb-string":"#00ff00","marker-color":"#00ff00","marker-symbol":"lighthouse"}},{"type":"Feature","geometry":{"type":"Point","coordinates":[-3.190294,55.943712]},"properties":{"marker-size":"medium","location":"sculpture.shot.melon","rgb-string":"#40ff00","marker-color":"#40ff00","marker-symbol":"lighthouse"}},{"type":"Feature","geometry":{"type":"Point","coordinates":[-3.188704,55.943389]},"properties":{"marker-size":"medium","location":"system.speak.guard","rgb-string":"#aaaaaa","marker-color":"#aaaaaa","marker-symbol":""}},{"type":"Feature","geometry":{"type":"Point","coordinates":[-3.191113,55.943901]},"properties":{"marker-size":"medium","location":"spicy.bunch.shady","rgb-string":"#00ff00","marker-color":"#00ff00","marker-symbol":"lighthouse"}},{"type":"Feature","geometry":{"type":"Point","coordinates":[-3.184899,55.944736]},"properties":{"marker-size":"medium","location":"slide.leads.stores","rgb-string":"#000000","marker-color":"#000000","marker-symbol":"cross"}},{"type":"Feature","geometry":{"type":"Point","coordinates":[-3.188126,55.943793]},"properties":{"marker-size":"medium","location":"cubs.trucks.help","rgb-string":"#40ff00","marker-color":"#40ff00","marker-symbol":"lighthouse"}},{"type":"Feature","geometry":{"type":"Point","coordinates":[-3.185814,55.94603]},"properties":{"marker-size":"medium","location":"renew.slows.basket","rgb-string":"#ff0000","marker-color":"#ff0000","marker-symbol":"danger"}},{"type":"Feature","geometry":{"type":"Point","coordinates":[-3.191161,55.943065]},"properties":{"marker-size":"medium","location":"else.urban.museum","rgb-string":"#00ff00","marker-color":"#00ff00","marker-symbol":"lighthouse"}},{"type":"Feature","geometry":{"type":"LineString","coordinates":[[-3.188396,55.944425],[-3.1883237,55.9441338],[-3.1881775,55.9438719],[-3.1879876,55.944104],[-3.1878188,55.9443521],[-3.1875374,55.9444561],[-3.1872386,55.9444826],[-3.1870924,55.9442206],[-3.1870201,55.9439294],[-3.1872565,55.9437446],[-3.1871842,55.9434535],[-3.1871119,55.9431623],[-3.1870396,55.9428711],[-3.1868117,55.9430662],[-3.1868448,55.9427681],[-3.1866761,55.9430161],[-3.1867092,55.942718],[-3.1865404,55.942966],[-3.1865471,55.9426661],[-3.1864246,55.94294],[-3.1863784,55.9426436],[-3.1862806,55.9429272],[-3.1861829,55.9432108],[-3.1860852,55.9434945],[-3.1860653,55.9437938],[-3.1861246,55.9440879],[-3.1858293,55.9440351],[-3.185534,55.9439822],[-3.1854116,55.9442561],[-3.1852891,55.94453],[-3.1850077,55.944634],[-3.184839,55.9448821],[-3.184649,55.9451142],[-3.1844803,55.9453623],[-3.184773,55.9454281],[-3.1850381,55.9455684],[-3.1853308,55.9456343],[-3.185596,55.9457746],[-3.1857961,55.9459981],[-3.1860726,55.9458818],[-3.1863243,55.9457186],[-3.1865039,55.9454782],[-3.1866834,55.9452379],[-3.186402,55.9453419],[-3.1866947,55.9454077],[-3.1864504,55.9455819],[-3.1867501,55.9455686],[-3.1870498,55.9455553],[-3.1868056,55.9457295],[-3.1871029,55.9456898],[-3.1874003,55.9456501],[-3.1876977,55.9456104],[-3.187995,55.9455706],[-3.1882924,55.9455309],[-3.1885851,55.9455968],[-3.1888778,55.9456626],[-3.1889109,55.9453644],[-3.188944,55.9450663],[-3.1890291,55.9447786],[-3.1890622,55.9444804],[-3.1891473,55.9441927],[-3.1894447,55.944153],[-3.189742,55.9441133],[-3.1899783,55.9439285],[-3.19023,55.9437653],[-3.1904096,55.9435249],[-3.1905891,55.9432846],[-3.1907687,55.9430442],[-3.1910684,55.943031],[-3.1911535,55.9427433],[-3.1911336,55.9430426],[-3.1911929,55.9433367],[-3.191173,55.943636],[-3.1910753,55.9439197],[-3.1910554,55.944219],[-3.1910355,55.9445183],[-3.1910948,55.9448124],[-3.1910749,55.9451118],[-3.1911343,55.9454058],[-3.1911144,55.9457052],[-3.1911737,55.9459992],[-3.190915,55.9458473],[-3.1906563,55.9456954],[-3.1903977,55.9455435],[-3.190139,55.9453916],[-3.1898803,55.9452397],[-3.1896216,55.9450878],[-3.1893629,55.9449359],[-3.1890918,55.9448074],[-3.1888331,55.9446555],[-3.188562,55.9445271],[-3.1883237,55.9441338],[-3.1881775,55.9438719],[-3.1879876,55.944104],[-3.1878188,55.9443521],[-3.1875374,55.9444561],[-3.1872386,55.9444826],[-3.1870924,55.9442206],[-3.1870201,55.9439294],[-3.1872565,55.9437446],[-3.1871842,55.9434535],[-3.1871119,55.9431623],[-3.1870396,55.9428711],[-3.1868117,55.9430662],[-3.1868448,55.9427681],[-3.1866761,55.9430161],[-3.1867092,55.942718],[-3.1865404,55.942966],[-3.1865471,55.9426661],[-3.1864246,55.94294],[-3.1863784,55.9426436],[-3.1862806,55.9429272],[-3.1861829,55.9432108],[-3.1860852,55.9434945],[-3.1860653,55.9437938],[-3.1861246,55.9440879],[-3.1858293,55.9440351],[-3.185534,55.9439822],[-3.1854116,55.9442561],[-3.1852891,55.94453],[-3.1850077,55.944634],[-3.184839,55.9448821],[-3.184649,55.9451142],[-3.1844803,55.9453623],[-3.184773,55.9454281],[-3.1850381,55.9455684],[-3.1853308,55.9456343],[-3.185596,55.9457746],[-3.1857961,55.9459981],[-3.1860726,55.9458818],[-3.1863243,55.9457186],[-3.1865039,55.9454782],[-3.1866834,55.9452379],[-3.186402,55.9453419],[-3.1866947,55.9454077],[-3.1864504,55.9455819],[-3.1867501,55.9455686],[-3.1870498,55.9455553],[-3.1868056,55.9457295],[-3.1871029,55.9456898],[-3.1874003,55.9456501],[-3.1876977,55.9456104],[-3.187995,55.9455706],[-3.1882924,55.9455309],[-3.1885851,55.9455968],[-3.1888778,55.9456626],[-3.1889109,55.9453644],[-3.188944,55.9450663],[-3.1890291,55.9447786],[-3.1890622,55.9444804],[-3.1891473,55.9441927],[-3.1894447,55.944153],[-3.189742,55.9441133],[-3.1899783,55.9439285],[-3.19023,55.9437653],[-3.1904096,55.9435249],[-3.1905891,55.9432846],[-3.1907687,55.9430442],[-3.1910684,55.943031],[-3.1911535,55.9427433],[-3.1911336,55.9430426],[-3.1911929,55.9433367],[-3.191173,55.943636],[-3.1910753,55.9439197],[-3.1910554,55.944219],[-3.1910355,55.9445183],[-3.1910948,55.9448124],[-3.1910749,55.9451118],[-3.1911343,55.9454058],[-3.1911144,55.9457052],[-3.1911737,55.9459992],[-3.190915,55.9458473],[-3.1906563,55.9456954],[-3.1903977,55.9455435],[-3.190139,55.9453916],[-3.1898803,55.9452397],[-3.1896216,55.9450878],[-3.1893629,55.9449359],[-3.1890918,55.9448074],[-3.1888331,55.9446555],[-3.188562,55.9445271]]},"properties":{}}]}